{
  "generated_at_utc": "2026-01-08T10:35:11.135478+00:00",
  "generated_at_local": "2026-01-08 16:05:11",
  "count": 10,
  "points": [
    {
      "currentSpeed_kmph": 27,
      "freeFlowSpeed_kmph": 34,
      "currentTravelTime_s": 1345,
      "freeFlowTravelTime_s": 1068,
      "delay_s": 277,
      "speed_ratio": 0.7941176470588235,
      "confidence": 1,
      "frc": "FRC3",
      "name": "IFFCO Chowk",
      "query_lat": 28.4726,
      "query_lon": 77.0726,
      "timestamp_utc": "2026-01-08T10:35:11.135478+00:00",
      "timestamp_local": "2026-01-08 16:05:11"
    },
    {
      "currentSpeed_kmph": 31,
      "freeFlowSpeed_kmph": 37,
      "currentTravelTime_s": 2160,
      "freeFlowTravelTime_s": 1810,
      "delay_s": 350,
      "speed_ratio": 0.8378378378378378,
      "confidence": 1,
      "frc": "FRC2",
      "name": "MG Road",
      "query_lat": 28.4795,
      "query_lon": 77.0806,
      "timestamp_utc": "2026-01-08T10:35:11.135478+00:00",
      "timestamp_local": "2026-01-08 16:05:11"
    },
    {
      "currentSpeed_kmph": 42,
      "freeFlowSpeed_kmph": 52,
      "currentTravelTime_s": 255,
      "freeFlowTravelTime_s": 206,
      "delay_s": 49,
      "speed_ratio": 0.8076923076923077,
      "confidence": 1,
      "frc": "FRC4",
      "name": "Cyber Hub",
      "query_lat": 28.4947,
      "query_lon": 77.0897,
      "timestamp_utc": "2026-01-08T10:35:11.135478+00:00",
      "timestamp_local": "2026-01-08 16:05:11"
    },
    {
      "currentSpeed_kmph": 27,
      "freeFlowSpeed_kmph": 33,
      "currentTravelTime_s": 1269,
      "freeFlowTravelTime_s": 1038,
      "delay_s": 231,
      "speed_ratio": 0.8181818181818182,
      "confidence": 1,
      "frc": "FRC4",
      "name": "Golf Course Rd",
      "query_lat": 28.4503,
      "query_lon": 77.0972,
      "timestamp_utc": "2026-01-08T10:35:11.135478+00:00",
      "timestamp_local": "2026-01-08 16:05:11"
    },
    {
      "currentSpeed_kmph": 46,
      "freeFlowSpeed_kmph": 50,
      "currentTravelTime_s": 1793,
      "freeFlowTravelTime_s": 1649,
      "delay_s": 144,
      "speed_ratio": 0.92,
      "confidence": 0.997932,
      "frc": "FRC4",
      "name": "Sohna Road",
      "query_lat": 28.4073,
      "query_lon": 77.046,
      "timestamp_utc": "2026-01-08T10:35:11.135478+00:00",
      "timestamp_local": "2026-01-08 16:05:11"
    },
    {
      "currentSpeed_kmph": 48,
      "freeFlowSpeed_kmph": 57,
      "currentTravelTime_s": 1515,
      "freeFlowTravelTime_s": 1276,
      "delay_s": 239,
      "speed_ratio": 0.8421052631578947,
      "confidence": 1,
      "frc": "FRC1",
      "name": "NH-48 (Ambience)",
      "query_lat": 28.5052,
      "query_lon": 77.097,
      "timestamp_utc": "2026-01-08T10:35:11.135478+00:00",
      "timestamp_local": "2026-01-08 16:05:11"
    },
    {
      "currentSpeed_kmph": 18,
      "freeFlowSpeed_kmph": 28,
      "currentTravelTime_s": 2333,
      "freeFlowTravelTime_s": 1500,
      "delay_s": 833,
      "speed_ratio": 0.6428571428571429,
      "confidence": 0.995903,
      "frc": "FRC4",
      "name": "Rajiv Chowk",
      "query_lat": 28.4691,
      "query_lon": 77.0366,
      "timestamp_utc": "2026-01-08T10:35:11.135478+00:00",
      "timestamp_local": "2026-01-08 16:05:11"
    },
    {
      "currentSpeed_kmph": 8,
      "freeFlowSpeed_kmph": 8,
      "currentTravelTime_s": 63,
      "freeFlowTravelTime_s": 63,
      "delay_s": 0,
      "speed_ratio": 1.0,
      "confidence": 1,
      "frc": "FRC4",
      "name": "Huda City Centre",
      "query_lat": 28.4595,
      "query_lon": 77.0722,
      "timestamp_utc": "2026-01-08T10:35:11.135478+00:00",
      "timestamp_local": "2026-01-08 16:05:11"
    },
    {
      "currentSpeed_kmph": 35,
      "freeFlowSpeed_kmph": 44,
      "currentTravelTime_s": 1935,
      "freeFlowTravelTime_s": 1539,
      "delay_s": 396,
      "speed_ratio": 0.7954545454545454,
      "confidence": 1,
      "frc": "FRC2",
      "name": "Sector 56",
      "query_lat": 28.4244,
      "query_lon": 77.107,
      "timestamp_utc": "2026-01-08T10:35:11.135478+00:00",
      "timestamp_local": "2026-01-08 16:05:11"
    },
    {
      "currentSpeed_kmph": 14,
      "freeFlowSpeed_kmph": 16,
      "currentTravelTime_s": 488,
      "freeFlowTravelTime_s": 427,
      "delay_s": 61,
      "speed_ratio": 0.875,
      "confidence": 0.582806,
      "frc": "FRC4",
      "name": "Manesar Rd",
      "query_lat": 28.354,
      "query_lon": 76.944,
      "timestamp_utc": "2026-01-08T10:35:11.135478+00:00",
      "timestamp_local": "2026-01-08 16:05:11"
    }
  ]
}