{
  "generated_at_utc": "2026-01-28T12:50:03.094112+00:00",
  "generated_at_local": "2026-01-28 18:20:03 IST",
  "count": 25,
  "points": [
    {
      "currentSpeed_kmph": 23,
      "freeFlowSpeed_kmph": 38,
      "currentTravelTime_s": 2393,
      "freeFlowTravelTime_s": 1448,
      "delay_s": 945,
      "speed_ratio": 0.6052631578947368,
      "confidence": 1,
      "frc": "FRC2",
      "name": "IFFCO Chowk",
      "query_lat": 28.477564199478913,
      "query_lon": 77.06859985177209,
      "timestamp_utc": "2026-01-28T12:50:03.094112+00:00",
      "timestamp_local": "2026-01-28 18:20:03 IST"
    },
    {
      "currentSpeed_kmph": 22,
      "freeFlowSpeed_kmph": 32,
      "currentTravelTime_s": 222,
      "freeFlowTravelTime_s": 152,
      "delay_s": 70,
      "speed_ratio": 0.6875,
      "confidence": 1,
      "frc": "FRC2",
      "name": "Rajiv Chowk",
      "query_lat": 28.445292087715444,
      "query_lon": 77.03318302971367,
      "timestamp_utc": "2026-01-28T12:50:03.094112+00:00",
      "timestamp_local": "2026-01-28 18:20:03 IST"
    },
    {
      "currentSpeed_kmph": 26,
      "freeFlowSpeed_kmph": 36,
      "currentTravelTime_s": 1946,
      "freeFlowTravelTime_s": 1405,
      "delay_s": 541,
      "speed_ratio": 0.7222222222222222,
      "confidence": 1,
      "frc": "FRC3",
      "name": "Hero Honda Chowk",
      "query_lat": 28.429572485292674,
      "query_lon": 77.02009547931516,
      "timestamp_utc": "2026-01-28T12:50:03.094112+00:00",
      "timestamp_local": "2026-01-28 18:20:03 IST"
    },
    {
      "currentSpeed_kmph": 59,
      "freeFlowSpeed_kmph": 59,
      "currentTravelTime_s": 451,
      "freeFlowTravelTime_s": 451,
      "delay_s": 0,
      "speed_ratio": 1.0,
      "confidence": 1,
      "frc": "FRC1",
      "name": "Kherki Daula Toll Plaza",
      "query_lat": 28.395715221700556,
      "query_lon": 76.98214491369943,
      "timestamp_utc": "2026-01-28T12:50:03.094112+00:00",
      "timestamp_local": "2026-01-28 18:20:03 IST"
    },
    {
      "currentSpeed_kmph": 38,
      "freeFlowSpeed_kmph": 57,
      "currentTravelTime_s": 1914,
      "freeFlowTravelTime_s": 1276,
      "delay_s": 638,
      "speed_ratio": 0.6666666666666666,
      "confidence": 1,
      "frc": "FRC1",
      "name": "Signature Tower",
      "query_lat": 28.462211223747214,
      "query_lon": 77.0489446912307,
      "timestamp_utc": "2026-01-28T12:50:03.094112+00:00",
      "timestamp_local": "2026-01-28 18:20:03 IST"
    },
    {
      "currentSpeed_kmph": 16,
      "freeFlowSpeed_kmph": 29,
      "currentTravelTime_s": 2625,
      "freeFlowTravelTime_s": 1448,
      "delay_s": 1177,
      "speed_ratio": 0.5517241379310345,
      "confidence": 0.994467,
      "frc": "FRC4",
      "name": "Shankar Chowk / Cyber City",
      "query_lat": 28.508064947117724,
      "query_lon": 77.08211742534732,
      "timestamp_utc": "2026-01-28T12:50:03.094112+00:00",
      "timestamp_local": "2026-01-28 18:20:03 IST"
    },
    {
      "currentSpeed_kmph": 31,
      "freeFlowSpeed_kmph": 42,
      "currentTravelTime_s": 1557,
      "freeFlowTravelTime_s": 1149,
      "delay_s": 408,
      "speed_ratio": 0.7380952380952381,
      "confidence": 1,
      "frc": "FRC3",
      "name": "Sikanderpur Metro",
      "query_lat": 28.481187691171193,
      "query_lon": 77.09425732449982,
      "timestamp_utc": "2026-01-28T12:50:03.094112+00:00",
      "timestamp_local": "2026-01-28 18:20:03 IST"
    },
    {
      "currentSpeed_kmph": 9,
      "freeFlowSpeed_kmph": 9,
      "currentTravelTime_s": 137,
      "freeFlowTravelTime_s": 137,
      "delay_s": 0,
      "speed_ratio": 1.0,
      "confidence": 1,
      "frc": "FRC3",
      "name": "HUDA City Centre Metro",
      "query_lat": 28.459382783815194,
      "query_lon": 77.07285799465937,
      "timestamp_utc": "2026-01-28T12:50:03.094112+00:00",
      "timestamp_local": "2026-01-28 18:20:03 IST"
    },
    {
      "currentSpeed_kmph": 12,
      "freeFlowSpeed_kmph": 32,
      "currentTravelTime_s": 118,
      "freeFlowTravelTime_s": 44,
      "delay_s": 74,
      "speed_ratio": 0.375,
      "confidence": 1,
      "frc": "FRC2",
      "name": "Subhash Chowk",
      "query_lat": 28.428861106525773,
      "query_lon": 77.03711785417951,
      "timestamp_utc": "2026-01-28T12:50:03.094112+00:00",
      "timestamp_local": "2026-01-28 18:20:03 IST"
    },
    {
      "currentSpeed_kmph": 38,
      "freeFlowSpeed_kmph": 57,
      "currentTravelTime_s": 1914,
      "freeFlowTravelTime_s": 1276,
      "delay_s": 638,
      "speed_ratio": 0.6666666666666666,
      "confidence": 1,
      "frc": "FRC1",
      "name": "Jharsa Chowk",
      "query_lat": 28.454834178543077,
      "query_lon": 77.04244784380403,
      "timestamp_utc": "2026-01-28T12:50:03.094112+00:00",
      "timestamp_local": "2026-01-28 18:20:03 IST"
    },
    {
      "currentSpeed_kmph": 17,
      "freeFlowSpeed_kmph": 27,
      "currentTravelTime_s": 2134,
      "freeFlowTravelTime_s": 1344,
      "delay_s": 790,
      "speed_ratio": 0.6296296296296297,
      "confidence": 1,
      "frc": "FRC4",
      "name": "Atul Kataria Chowk",
      "query_lat": 28.481183722468575,
      "query_lon": 77.04867463883903,
      "timestamp_utc": "2026-01-28T12:50:03.094112+00:00",
      "timestamp_local": "2026-01-28 18:20:03 IST"
    },
    {
      "currentSpeed_kmph": 26,
      "freeFlowSpeed_kmph": 38,
      "currentTravelTime_s": 2576,
      "freeFlowTravelTime_s": 1762,
      "delay_s": 814,
      "speed_ratio": 0.6842105263157895,
      "confidence": 1,
      "frc": "FRC2",
      "name": "Mahavir Chowk",
      "query_lat": 28.463656522868447,
      "query_lon": 77.03413268301684,
      "timestamp_utc": "2026-01-28T12:50:03.094112+00:00",
      "timestamp_local": "2026-01-28 18:20:03 IST"
    },
    {
      "currentSpeed_kmph": 40,
      "freeFlowSpeed_kmph": 40,
      "currentTravelTime_s": 233,
      "freeFlowTravelTime_s": 233,
      "delay_s": 0,
      "speed_ratio": 1.0,
      "confidence": 1,
      "frc": "FRC3",
      "name": "Ghata Chowk",
      "query_lat": 28.421982117566415,
      "query_lon": 77.10973463698622,
      "timestamp_utc": "2026-01-28T12:50:03.094112+00:00",
      "timestamp_local": "2026-01-28 18:20:03 IST"
    },
    {
      "currentSpeed_kmph": 27,
      "freeFlowSpeed_kmph": 40,
      "currentTravelTime_s": 1132,
      "freeFlowTravelTime_s": 764,
      "delay_s": 368,
      "speed_ratio": 0.675,
      "confidence": 1,
      "frc": "FRC2",
      "name": "Vatika Chowk (SPR-Sohna Rd)",
      "query_lat": 28.404865793781532,
      "query_lon": 77.04204962349263,
      "timestamp_utc": "2026-01-28T12:50:03.094112+00:00",
      "timestamp_local": "2026-01-28 18:20:03 IST"
    },
    {
      "currentSpeed_kmph": 42,
      "freeFlowSpeed_kmph": 42,
      "currentTravelTime_s": 380,
      "freeFlowTravelTime_s": 380,
      "delay_s": 0,
      "speed_ratio": 1.0,
      "confidence": 1,
      "frc": "FRC3",
      "name": "Badshahpur / Sohna Rd junction",
      "query_lat": 28.35048237859808,
      "query_lon": 77.0655043369831,
      "timestamp_utc": "2026-01-28T12:50:03.094112+00:00",
      "timestamp_local": "2026-01-28 18:20:03 IST"
    },
    {
      "currentSpeed_kmph": 25,
      "freeFlowSpeed_kmph": 32,
      "currentTravelTime_s": 1371,
      "freeFlowTravelTime_s": 1071,
      "delay_s": 300,
      "speed_ratio": 0.78125,
      "confidence": 0.998156,
      "frc": "FRC4",
      "name": "Ambedkar Chowk",
      "query_lat": 28.437148333410683,
      "query_lon": 77.0674060560299,
      "timestamp_utc": "2026-01-28T12:50:03.094112+00:00",
      "timestamp_local": "2026-01-28 18:20:03 IST"
    },
    {
      "currentSpeed_kmph": 16,
      "freeFlowSpeed_kmph": 29,
      "currentTravelTime_s": 2625,
      "freeFlowTravelTime_s": 1448,
      "delay_s": 1177,
      "speed_ratio": 0.5517241379310345,
      "confidence": 0.994467,
      "frc": "FRC4",
      "name": "Dundahera Hanuman Mandir (Old Delhi Rd)",
      "query_lat": 28.511407097088824,
      "query_lon": 77.07777883884035,
      "timestamp_utc": "2026-01-28T12:50:03.094112+00:00",
      "timestamp_local": "2026-01-28 18:20:03 IST"
    },
    {
      "currentSpeed_kmph": 61,
      "freeFlowSpeed_kmph": 61,
      "currentTravelTime_s": 43,
      "freeFlowTravelTime_s": 43,
      "delay_s": 0,
      "speed_ratio": 1.0,
      "confidence": 1,
      "frc": "FRC1",
      "name": "Dwarka Expwy-NH48 Cloverleaf",
      "query_lat": 28.40601139485718,
      "query_lon": 76.9902767658213,
      "timestamp_utc": "2026-01-28T12:50:03.094112+00:00",
      "timestamp_local": "2026-01-28 18:20:03 IST"
    },
    {
      "currentSpeed_kmph": 38,
      "freeFlowSpeed_kmph": 57,
      "currentTravelTime_s": 1914,
      "freeFlowTravelTime_s": 1276,
      "delay_s": 638,
      "speed_ratio": 0.6666666666666666,
      "confidence": 1,
      "frc": "FRC1",
      "name": "Sector 31 Signal / Market",
      "query_lat": 28.456542851852696,
      "query_lon": 77.04977988988432,
      "timestamp_utc": "2026-01-28T12:50:03.094112+00:00",
      "timestamp_local": "2026-01-28 18:20:03 IST"
    },
    {
      "currentSpeed_kmph": 17,
      "freeFlowSpeed_kmph": 27,
      "currentTravelTime_s": 2134,
      "freeFlowTravelTime_s": 1344,
      "delay_s": 790,
      "speed_ratio": 0.6296296296296297,
      "confidence": 1,
      "frc": "FRC4",
      "name": "Old Gurgaon Bus Stand",
      "query_lat": 28.466952871185878,
      "query_lon": 77.03269036613194,
      "timestamp_utc": "2026-01-28T12:50:03.094112+00:00",
      "timestamp_local": "2026-01-28 18:20:03 IST"
    },
    {
      "currentSpeed_kmph": 23,
      "freeFlowSpeed_kmph": 34,
      "currentTravelTime_s": 145,
      "freeFlowTravelTime_s": 98,
      "delay_s": 47,
      "speed_ratio": 0.6764705882352942,
      "confidence": 1,
      "frc": "FRC1",
      "name": "IMT Manesar Junction",
      "query_lat": 28.360673595292468,
      "query_lon": 76.93919787004663,
      "timestamp_utc": "2026-01-28T12:50:03.094112+00:00",
      "timestamp_local": "2026-01-28 18:20:03 IST"
    },
    {
      "currentSpeed_kmph": 16,
      "freeFlowSpeed_kmph": 16,
      "currentTravelTime_s": 72,
      "freeFlowTravelTime_s": 72,
      "delay_s": 0,
      "speed_ratio": 1.0,
      "confidence": 1,
      "frc": "FRC4",
      "name": "Golf Course Rd - One Horizon",
      "query_lat": 28.4513013391806,
      "query_lon": 77.09741156582324,
      "timestamp_utc": "2026-01-28T12:50:03.094112+00:00",
      "timestamp_local": "2026-01-28 18:20:03 IST"
    },
    {
      "currentSpeed_kmph": 37,
      "freeFlowSpeed_kmph": 37,
      "currentTravelTime_s": 51,
      "freeFlowTravelTime_s": 51,
      "delay_s": 0,
      "speed_ratio": 1.0,
      "confidence": 1,
      "frc": "FRC4",
      "name": "Sector 56/57 - Golf Course Extn",
      "query_lat": 28.448653219922612,
      "query_lon": 77.09931976915546,
      "timestamp_utc": "2026-01-28T12:50:03.094112+00:00",
      "timestamp_local": "2026-01-28 18:20:03 IST"
    },
    {
      "currentSpeed_kmph": 25,
      "freeFlowSpeed_kmph": 32,
      "currentTravelTime_s": 1371,
      "freeFlowTravelTime_s": 1071,
      "delay_s": 300,
      "speed_ratio": 0.78125,
      "confidence": 0.998156,
      "frc": "FRC4",
      "name": "Sohna Town Entry",
      "query_lat": 28.419803693042986,
      "query_lon": 77.04230448203113,
      "timestamp_utc": "2026-01-28T12:50:03.094112+00:00",
      "timestamp_local": "2026-01-28 18:20:03 IST"
    },
    {
      "currentSpeed_kmph": 30,
      "freeFlowSpeed_kmph": 36,
      "currentTravelTime_s": 2862,
      "freeFlowTravelTime_s": 2385,
      "delay_s": 477,
      "speed_ratio": 0.8333333333333334,
      "confidence": 0.997335,
      "frc": "FRC3",
      "name": "Pataudi Rd - Sector 89/90",
      "query_lat": 28.427631686155653,
      "query_lon": 76.94592366161731,
      "timestamp_utc": "2026-01-28T12:50:03.094112+00:00",
      "timestamp_local": "2026-01-28 18:20:03 IST"
    }
  ]
}