{
  "generated_at_utc": "2026-01-08T06:46:42.260157+00:00",
  "generated_at_local": "2026-01-08 12:16:42",
  "count": 10,
  "points": [
    {
      "currentSpeed_kmph": 28,
      "freeFlowSpeed_kmph": 34,
      "currentTravelTime_s": 1297,
      "freeFlowTravelTime_s": 1068,
      "delay_s": 229,
      "speed_ratio": 0.8235294117647058,
      "confidence": 1,
      "frc": "FRC3",
      "name": "IFFCO Chowk",
      "query_lat": 28.4726,
      "query_lon": 77.0726,
      "timestamp_utc": "2026-01-08T06:46:42.260157+00:00",
      "timestamp_local": "2026-01-08 12:16:42"
    },
    {
      "currentSpeed_kmph": 30,
      "freeFlowSpeed_kmph": 37,
      "currentTravelTime_s": 2232,
      "freeFlowTravelTime_s": 1810,
      "delay_s": 422,
      "speed_ratio": 0.8108108108108109,
      "confidence": 1,
      "frc": "FRC2",
      "name": "MG Road",
      "query_lat": 28.4795,
      "query_lon": 77.0806,
      "timestamp_utc": "2026-01-08T06:46:42.260157+00:00",
      "timestamp_local": "2026-01-08 12:16:42"
    },
    {
      "currentSpeed_kmph": 43,
      "freeFlowSpeed_kmph": 52,
      "currentTravelTime_s": 249,
      "freeFlowTravelTime_s": 206,
      "delay_s": 43,
      "speed_ratio": 0.8269230769230769,
      "confidence": 1,
      "frc": "FRC4",
      "name": "Cyber Hub",
      "query_lat": 28.4947,
      "query_lon": 77.0897,
      "timestamp_utc": "2026-01-08T06:46:42.260157+00:00",
      "timestamp_local": "2026-01-08 12:16:42"
    },
    {
      "currentSpeed_kmph": 27,
      "freeFlowSpeed_kmph": 33,
      "currentTravelTime_s": 1269,
      "freeFlowTravelTime_s": 1038,
      "delay_s": 231,
      "speed_ratio": 0.8181818181818182,
      "confidence": 0.997564,
      "frc": "FRC4",
      "name": "Golf Course Rd",
      "query_lat": 28.4503,
      "query_lon": 77.0972,
      "timestamp_utc": "2026-01-08T06:46:42.260157+00:00",
      "timestamp_local": "2026-01-08 12:16:42"
    },
    {
      "currentSpeed_kmph": 44,
      "freeFlowSpeed_kmph": 50,
      "currentTravelTime_s": 1874,
      "freeFlowTravelTime_s": 1649,
      "delay_s": 225,
      "speed_ratio": 0.88,
      "confidence": 0.996924,
      "frc": "FRC4",
      "name": "Sohna Road",
      "query_lat": 28.4073,
      "query_lon": 77.046,
      "timestamp_utc": "2026-01-08T06:46:42.260157+00:00",
      "timestamp_local": "2026-01-08 12:16:42"
    },
    {
      "currentSpeed_kmph": 46,
      "freeFlowSpeed_kmph": 57,
      "currentTravelTime_s": 1581,
      "freeFlowTravelTime_s": 1276,
      "delay_s": 305,
      "speed_ratio": 0.8070175438596491,
      "confidence": 1,
      "frc": "FRC1",
      "name": "NH-48 (Ambience)",
      "query_lat": 28.5052,
      "query_lon": 77.097,
      "timestamp_utc": "2026-01-08T06:46:42.260157+00:00",
      "timestamp_local": "2026-01-08 12:16:42"
    },
    {
      "currentSpeed_kmph": 18,
      "freeFlowSpeed_kmph": 29,
      "currentTravelTime_s": 2333,
      "freeFlowTravelTime_s": 1448,
      "delay_s": 885,
      "speed_ratio": 0.6206896551724138,
      "confidence": 0.992437,
      "frc": "FRC4",
      "name": "Rajiv Chowk",
      "query_lat": 28.4691,
      "query_lon": 77.0366,
      "timestamp_utc": "2026-01-08T06:46:42.260157+00:00",
      "timestamp_local": "2026-01-08 12:16:42"
    },
    {
      "currentSpeed_kmph": 8,
      "freeFlowSpeed_kmph": 8,
      "currentTravelTime_s": 63,
      "freeFlowTravelTime_s": 63,
      "delay_s": 0,
      "speed_ratio": 1.0,
      "confidence": 1,
      "frc": "FRC4",
      "name": "Huda City Centre",
      "query_lat": 28.4595,
      "query_lon": 77.0722,
      "timestamp_utc": "2026-01-08T06:46:42.260157+00:00",
      "timestamp_local": "2026-01-08 12:16:42"
    },
    {
      "currentSpeed_kmph": 38,
      "freeFlowSpeed_kmph": 44,
      "currentTravelTime_s": 1782,
      "freeFlowTravelTime_s": 1539,
      "delay_s": 243,
      "speed_ratio": 0.8636363636363636,
      "confidence": 1,
      "frc": "FRC2",
      "name": "Sector 56",
      "query_lat": 28.4244,
      "query_lon": 77.107,
      "timestamp_utc": "2026-01-08T06:46:42.260157+00:00",
      "timestamp_local": "2026-01-08 12:16:42"
    },
    {
      "currentSpeed_kmph": 17,
      "freeFlowSpeed_kmph": 17,
      "currentTravelTime_s": 402,
      "freeFlowTravelTime_s": 402,
      "delay_s": 0,
      "speed_ratio": 1.0,
      "confidence": 1,
      "frc": "FRC4",
      "name": "Manesar Rd",
      "query_lat": 28.354,
      "query_lon": 76.944,
      "timestamp_utc": "2026-01-08T06:46:42.260157+00:00",
      "timestamp_local": "2026-01-08 12:16:42"
    }
  ]
}