{
  "generated_at_utc": "2026-01-08T07:55:50.851824+00:00",
  "generated_at_local": "2026-01-08 13:25:50",
  "count": 10,
  "points": [
    {
      "currentSpeed_kmph": 29,
      "freeFlowSpeed_kmph": 34,
      "currentTravelTime_s": 1253,
      "freeFlowTravelTime_s": 1068,
      "delay_s": 185,
      "speed_ratio": 0.8529411764705882,
      "confidence": 1,
      "frc": "FRC3",
      "name": "IFFCO Chowk",
      "query_lat": 28.4726,
      "query_lon": 77.0726,
      "timestamp_utc": "2026-01-08T07:55:50.851824+00:00",
      "timestamp_local": "2026-01-08 13:25:50"
    },
    {
      "currentSpeed_kmph": 30,
      "freeFlowSpeed_kmph": 37,
      "currentTravelTime_s": 2232,
      "freeFlowTravelTime_s": 1810,
      "delay_s": 422,
      "speed_ratio": 0.8108108108108109,
      "confidence": 1,
      "frc": "FRC2",
      "name": "MG Road",
      "query_lat": 28.4795,
      "query_lon": 77.0806,
      "timestamp_utc": "2026-01-08T07:55:50.851824+00:00",
      "timestamp_local": "2026-01-08 13:25:50"
    },
    {
      "currentSpeed_kmph": 52,
      "freeFlowSpeed_kmph": 52,
      "currentTravelTime_s": 206,
      "freeFlowTravelTime_s": 206,
      "delay_s": 0,
      "speed_ratio": 1.0,
      "confidence": 1,
      "frc": "FRC4",
      "name": "Cyber Hub",
      "query_lat": 28.4947,
      "query_lon": 77.0897,
      "timestamp_utc": "2026-01-08T07:55:50.851824+00:00",
      "timestamp_local": "2026-01-08 13:25:50"
    },
    {
      "currentSpeed_kmph": 28,
      "freeFlowSpeed_kmph": 33,
      "currentTravelTime_s": 1224,
      "freeFlowTravelTime_s": 1038,
      "delay_s": 186,
      "speed_ratio": 0.8484848484848485,
      "confidence": 1,
      "frc": "FRC4",
      "name": "Golf Course Rd",
      "query_lat": 28.4503,
      "query_lon": 77.0972,
      "timestamp_utc": "2026-01-08T07:55:50.851824+00:00",
      "timestamp_local": "2026-01-08 13:25:50"
    },
    {
      "currentSpeed_kmph": 45,
      "freeFlowSpeed_kmph": 50,
      "currentTravelTime_s": 1832,
      "freeFlowTravelTime_s": 1649,
      "delay_s": 183,
      "speed_ratio": 0.9,
      "confidence": 0.994665,
      "frc": "FRC4",
      "name": "Sohna Road",
      "query_lat": 28.4073,
      "query_lon": 77.046,
      "timestamp_utc": "2026-01-08T07:55:50.851824+00:00",
      "timestamp_local": "2026-01-08 13:25:50"
    },
    {
      "currentSpeed_kmph": 58,
      "freeFlowSpeed_kmph": 58,
      "currentTravelTime_s": 1254,
      "freeFlowTravelTime_s": 1254,
      "delay_s": 0,
      "speed_ratio": 1.0,
      "confidence": 1,
      "frc": "FRC1",
      "name": "NH-48 (Ambience)",
      "query_lat": 28.5052,
      "query_lon": 77.097,
      "timestamp_utc": "2026-01-08T07:55:50.851824+00:00",
      "timestamp_local": "2026-01-08 13:25:50"
    },
    {
      "currentSpeed_kmph": 20,
      "freeFlowSpeed_kmph": 29,
      "currentTravelTime_s": 2100,
      "freeFlowTravelTime_s": 1448,
      "delay_s": 652,
      "speed_ratio": 0.6896551724137931,
      "confidence": 0.985029,
      "frc": "FRC4",
      "name": "Rajiv Chowk",
      "query_lat": 28.4691,
      "query_lon": 77.0366,
      "timestamp_utc": "2026-01-08T07:55:50.851824+00:00",
      "timestamp_local": "2026-01-08 13:25:50"
    },
    {
      "currentSpeed_kmph": 5,
      "freeFlowSpeed_kmph": 8,
      "currentTravelTime_s": 100,
      "freeFlowTravelTime_s": 63,
      "delay_s": 37,
      "speed_ratio": 0.625,
      "confidence": 0.98,
      "frc": "FRC4",
      "name": "Huda City Centre",
      "query_lat": 28.4595,
      "query_lon": 77.0722,
      "timestamp_utc": "2026-01-08T07:55:50.851824+00:00",
      "timestamp_local": "2026-01-08 13:25:50"
    },
    {
      "currentSpeed_kmph": 36,
      "freeFlowSpeed_kmph": 44,
      "currentTravelTime_s": 1881,
      "freeFlowTravelTime_s": 1539,
      "delay_s": 342,
      "speed_ratio": 0.8181818181818182,
      "confidence": 1,
      "frc": "FRC2",
      "name": "Sector 56",
      "query_lat": 28.4244,
      "query_lon": 77.107,
      "timestamp_utc": "2026-01-08T07:55:50.851824+00:00",
      "timestamp_local": "2026-01-08 13:25:50"
    },
    {
      "currentSpeed_kmph": 17,
      "freeFlowSpeed_kmph": 17,
      "currentTravelTime_s": 402,
      "freeFlowTravelTime_s": 402,
      "delay_s": 0,
      "speed_ratio": 1.0,
      "confidence": 1,
      "frc": "FRC4",
      "name": "Manesar Rd",
      "query_lat": 28.354,
      "query_lon": 76.944,
      "timestamp_utc": "2026-01-08T07:55:50.851824+00:00",
      "timestamp_local": "2026-01-08 13:25:50"
    }
  ]
}