{
  "generated_at_utc": "2026-01-24T15:52:37.508851+00:00",
  "generated_at_local": "2026-01-24 21:22:37 IST",
  "count": 25,
  "points": [
    {
      "currentSpeed_kmph": 37,
      "freeFlowSpeed_kmph": 37,
      "currentTravelTime_s": 1488,
      "freeFlowTravelTime_s": 1488,
      "delay_s": 0,
      "speed_ratio": 1.0,
      "confidence": 1,
      "frc": "FRC2",
      "name": "IFFCO Chowk",
      "query_lat": 28.477564199478913,
      "query_lon": 77.06859985177209,
      "timestamp_utc": "2026-01-24T15:52:37.508851+00:00",
      "timestamp_local": "2026-01-24 21:22:37 IST"
    },
    {
      "currentSpeed_kmph": 33,
      "freeFlowSpeed_kmph": 33,
      "currentTravelTime_s": 148,
      "freeFlowTravelTime_s": 148,
      "delay_s": 0,
      "speed_ratio": 1.0,
      "confidence": 1,
      "frc": "FRC2",
      "name": "Rajiv Chowk",
      "query_lat": 28.445292087715444,
      "query_lon": 77.03318302971367,
      "timestamp_utc": "2026-01-24T15:52:37.508851+00:00",
      "timestamp_local": "2026-01-24 21:22:37 IST"
    },
    {
      "currentSpeed_kmph": 35,
      "freeFlowSpeed_kmph": 35,
      "currentTravelTime_s": 1445,
      "freeFlowTravelTime_s": 1445,
      "delay_s": 0,
      "speed_ratio": 1.0,
      "confidence": 1,
      "frc": "FRC3",
      "name": "Hero Honda Chowk",
      "query_lat": 28.429572485292674,
      "query_lon": 77.02009547931516,
      "timestamp_utc": "2026-01-24T15:52:37.508851+00:00",
      "timestamp_local": "2026-01-24 21:22:37 IST"
    },
    {
      "currentSpeed_kmph": 59,
      "freeFlowSpeed_kmph": 59,
      "currentTravelTime_s": 451,
      "freeFlowTravelTime_s": 451,
      "delay_s": 0,
      "speed_ratio": 1.0,
      "confidence": 1,
      "frc": "FRC1",
      "name": "Kherki Daula Toll Plaza",
      "query_lat": 28.395715221700556,
      "query_lon": 76.98214491369943,
      "timestamp_utc": "2026-01-24T15:52:37.508851+00:00",
      "timestamp_local": "2026-01-24 21:22:37 IST"
    },
    {
      "currentSpeed_kmph": 58,
      "freeFlowSpeed_kmph": 58,
      "currentTravelTime_s": 1254,
      "freeFlowTravelTime_s": 1254,
      "delay_s": 0,
      "speed_ratio": 1.0,
      "confidence": 1,
      "frc": "FRC1",
      "name": "Signature Tower",
      "query_lat": 28.462211223747214,
      "query_lon": 77.0489446912307,
      "timestamp_utc": "2026-01-24T15:52:37.508851+00:00",
      "timestamp_local": "2026-01-24 21:22:37 IST"
    },
    {
      "currentSpeed_kmph": 21,
      "freeFlowSpeed_kmph": 29,
      "currentTravelTime_s": 2000,
      "freeFlowTravelTime_s": 1448,
      "delay_s": 552,
      "speed_ratio": 0.7241379310344828,
      "confidence": 0.995561,
      "frc": "FRC4",
      "name": "Shankar Chowk / Cyber City",
      "query_lat": 28.508064947117724,
      "query_lon": 77.08211742534732,
      "timestamp_utc": "2026-01-24T15:52:37.508851+00:00",
      "timestamp_local": "2026-01-24 21:22:37 IST"
    },
    {
      "currentSpeed_kmph": 40,
      "freeFlowSpeed_kmph": 40,
      "currentTravelTime_s": 1206,
      "freeFlowTravelTime_s": 1206,
      "delay_s": 0,
      "speed_ratio": 1.0,
      "confidence": 1,
      "frc": "FRC3",
      "name": "Sikanderpur Metro",
      "query_lat": 28.481187691171193,
      "query_lon": 77.09425732449982,
      "timestamp_utc": "2026-01-24T15:52:37.508851+00:00",
      "timestamp_local": "2026-01-24 21:22:37 IST"
    },
    {
      "currentSpeed_kmph": 9,
      "freeFlowSpeed_kmph": 9,
      "currentTravelTime_s": 137,
      "freeFlowTravelTime_s": 137,
      "delay_s": 0,
      "speed_ratio": 1.0,
      "confidence": 1,
      "frc": "FRC3",
      "name": "HUDA City Centre Metro",
      "query_lat": 28.459382783815194,
      "query_lon": 77.07285799465937,
      "timestamp_utc": "2026-01-24T15:52:37.508851+00:00",
      "timestamp_local": "2026-01-24 21:22:37 IST"
    },
    {
      "currentSpeed_kmph": 32,
      "freeFlowSpeed_kmph": 32,
      "currentTravelTime_s": 44,
      "freeFlowTravelTime_s": 44,
      "delay_s": 0,
      "speed_ratio": 1.0,
      "confidence": 1,
      "frc": "FRC2",
      "name": "Subhash Chowk",
      "query_lat": 28.428861106525773,
      "query_lon": 77.03711785417951,
      "timestamp_utc": "2026-01-24T15:52:37.508851+00:00",
      "timestamp_local": "2026-01-24 21:22:37 IST"
    },
    {
      "currentSpeed_kmph": 58,
      "freeFlowSpeed_kmph": 58,
      "currentTravelTime_s": 1254,
      "freeFlowTravelTime_s": 1254,
      "delay_s": 0,
      "speed_ratio": 1.0,
      "confidence": 1,
      "frc": "FRC1",
      "name": "Jharsa Chowk",
      "query_lat": 28.454834178543077,
      "query_lon": 77.04244784380403,
      "timestamp_utc": "2026-01-24T15:52:37.508851+00:00",
      "timestamp_local": "2026-01-24 21:22:37 IST"
    },
    {
      "currentSpeed_kmph": 27,
      "freeFlowSpeed_kmph": 27,
      "currentTravelTime_s": 1344,
      "freeFlowTravelTime_s": 1344,
      "delay_s": 0,
      "speed_ratio": 1.0,
      "confidence": 1,
      "frc": "FRC4",
      "name": "Atul Kataria Chowk",
      "query_lat": 28.481183722468575,
      "query_lon": 77.04867463883903,
      "timestamp_utc": "2026-01-24T15:52:37.508851+00:00",
      "timestamp_local": "2026-01-24 21:22:37 IST"
    },
    {
      "currentSpeed_kmph": 37,
      "freeFlowSpeed_kmph": 37,
      "currentTravelTime_s": 1810,
      "freeFlowTravelTime_s": 1810,
      "delay_s": 0,
      "speed_ratio": 1.0,
      "confidence": 1,
      "frc": "FRC2",
      "name": "Mahavir Chowk",
      "query_lat": 28.463656522868447,
      "query_lon": 77.03413268301684,
      "timestamp_utc": "2026-01-24T15:52:37.508851+00:00",
      "timestamp_local": "2026-01-24 21:22:37 IST"
    },
    {
      "currentSpeed_kmph": 40,
      "freeFlowSpeed_kmph": 40,
      "currentTravelTime_s": 233,
      "freeFlowTravelTime_s": 233,
      "delay_s": 0,
      "speed_ratio": 1.0,
      "confidence": 1,
      "frc": "FRC3",
      "name": "Ghata Chowk",
      "query_lat": 28.421982117566415,
      "query_lon": 77.10973463698622,
      "timestamp_utc": "2026-01-24T15:52:37.508851+00:00",
      "timestamp_local": "2026-01-24 21:22:37 IST"
    },
    {
      "currentSpeed_kmph": 40,
      "freeFlowSpeed_kmph": 40,
      "currentTravelTime_s": 764,
      "freeFlowTravelTime_s": 764,
      "delay_s": 0,
      "speed_ratio": 1.0,
      "confidence": 1,
      "frc": "FRC2",
      "name": "Vatika Chowk (SPR-Sohna Rd)",
      "query_lat": 28.404865793781532,
      "query_lon": 77.04204962349263,
      "timestamp_utc": "2026-01-24T15:52:37.508851+00:00",
      "timestamp_local": "2026-01-24 21:22:37 IST"
    },
    {
      "currentSpeed_kmph": 35,
      "freeFlowSpeed_kmph": 41,
      "currentTravelTime_s": 457,
      "freeFlowTravelTime_s": 390,
      "delay_s": 67,
      "speed_ratio": 0.8536585365853658,
      "confidence": 0.991946,
      "frc": "FRC3",
      "name": "Badshahpur / Sohna Rd junction",
      "query_lat": 28.35048237859808,
      "query_lon": 77.0655043369831,
      "timestamp_utc": "2026-01-24T15:52:37.508851+00:00",
      "timestamp_local": "2026-01-24 21:22:37 IST"
    },
    {
      "currentSpeed_kmph": 32,
      "freeFlowSpeed_kmph": 32,
      "currentTravelTime_s": 1071,
      "freeFlowTravelTime_s": 1071,
      "delay_s": 0,
      "speed_ratio": 1.0,
      "confidence": 1,
      "frc": "FRC4",
      "name": "Ambedkar Chowk",
      "query_lat": 28.437148333410683,
      "query_lon": 77.0674060560299,
      "timestamp_utc": "2026-01-24T15:52:37.508851+00:00",
      "timestamp_local": "2026-01-24 21:22:37 IST"
    },
    {
      "currentSpeed_kmph": 21,
      "freeFlowSpeed_kmph": 29,
      "currentTravelTime_s": 2000,
      "freeFlowTravelTime_s": 1448,
      "delay_s": 552,
      "speed_ratio": 0.7241379310344828,
      "confidence": 0.995561,
      "frc": "FRC4",
      "name": "Dundahera Hanuman Mandir (Old Delhi Rd)",
      "query_lat": 28.511407097088824,
      "query_lon": 77.07777883884035,
      "timestamp_utc": "2026-01-24T15:52:37.508851+00:00",
      "timestamp_local": "2026-01-24 21:22:37 IST"
    },
    {
      "currentSpeed_kmph": 61,
      "freeFlowSpeed_kmph": 61,
      "currentTravelTime_s": 43,
      "freeFlowTravelTime_s": 43,
      "delay_s": 0,
      "speed_ratio": 1.0,
      "confidence": 1,
      "frc": "FRC1",
      "name": "Dwarka Expwy-NH48 Cloverleaf",
      "query_lat": 28.40601139485718,
      "query_lon": 76.9902767658213,
      "timestamp_utc": "2026-01-24T15:52:37.508851+00:00",
      "timestamp_local": "2026-01-24 21:22:37 IST"
    },
    {
      "currentSpeed_kmph": 58,
      "freeFlowSpeed_kmph": 58,
      "currentTravelTime_s": 1254,
      "freeFlowTravelTime_s": 1254,
      "delay_s": 0,
      "speed_ratio": 1.0,
      "confidence": 1,
      "frc": "FRC1",
      "name": "Sector 31 Signal / Market",
      "query_lat": 28.456542851852696,
      "query_lon": 77.04977988988432,
      "timestamp_utc": "2026-01-24T15:52:37.508851+00:00",
      "timestamp_local": "2026-01-24 21:22:37 IST"
    },
    {
      "currentSpeed_kmph": 23,
      "freeFlowSpeed_kmph": 27,
      "currentTravelTime_s": 1577,
      "freeFlowTravelTime_s": 1344,
      "delay_s": 233,
      "speed_ratio": 0.8518518518518519,
      "confidence": 1,
      "frc": "FRC4",
      "name": "Old Gurgaon Bus Stand",
      "query_lat": 28.466952871185878,
      "query_lon": 77.03269036613194,
      "timestamp_utc": "2026-01-24T15:52:37.508851+00:00",
      "timestamp_local": "2026-01-24 21:22:37 IST"
    },
    {
      "currentSpeed_kmph": 33,
      "freeFlowSpeed_kmph": 33,
      "currentTravelTime_s": 101,
      "freeFlowTravelTime_s": 101,
      "delay_s": 0,
      "speed_ratio": 1.0,
      "confidence": 1,
      "frc": "FRC1",
      "name": "IMT Manesar Junction",
      "query_lat": 28.360673595292468,
      "query_lon": 76.93919787004663,
      "timestamp_utc": "2026-01-24T15:52:37.508851+00:00",
      "timestamp_local": "2026-01-24 21:22:37 IST"
    },
    {
      "currentSpeed_kmph": 16,
      "freeFlowSpeed_kmph": 16,
      "currentTravelTime_s": 72,
      "freeFlowTravelTime_s": 72,
      "delay_s": 0,
      "speed_ratio": 1.0,
      "confidence": 1,
      "frc": "FRC4",
      "name": "Golf Course Rd - One Horizon",
      "query_lat": 28.4513013391806,
      "query_lon": 77.09741156582324,
      "timestamp_utc": "2026-01-24T15:52:37.508851+00:00",
      "timestamp_local": "2026-01-24 21:22:37 IST"
    },
    {
      "currentSpeed_kmph": 37,
      "freeFlowSpeed_kmph": 37,
      "currentTravelTime_s": 51,
      "freeFlowTravelTime_s": 51,
      "delay_s": 0,
      "speed_ratio": 1.0,
      "confidence": 1,
      "frc": "FRC4",
      "name": "Sector 56/57 - Golf Course Extn",
      "query_lat": 28.448653219922612,
      "query_lon": 77.09931976915546,
      "timestamp_utc": "2026-01-24T15:52:37.508851+00:00",
      "timestamp_local": "2026-01-24 21:22:37 IST"
    },
    {
      "currentSpeed_kmph": 32,
      "freeFlowSpeed_kmph": 32,
      "currentTravelTime_s": 1071,
      "freeFlowTravelTime_s": 1071,
      "delay_s": 0,
      "speed_ratio": 1.0,
      "confidence": 1,
      "frc": "FRC4",
      "name": "Sohna Town Entry",
      "query_lat": 28.419803693042986,
      "query_lon": 77.04230448203113,
      "timestamp_utc": "2026-01-24T15:52:37.508851+00:00",
      "timestamp_local": "2026-01-24 21:22:37 IST"
    },
    {
      "currentSpeed_kmph": 36,
      "freeFlowSpeed_kmph": 36,
      "currentTravelTime_s": 2385,
      "freeFlowTravelTime_s": 2385,
      "delay_s": 0,
      "speed_ratio": 1.0,
      "confidence": 1,
      "frc": "FRC3",
      "name": "Pataudi Rd - Sector 89/90",
      "query_lat": 28.427631686155653,
      "query_lon": 76.94592366161731,
      "timestamp_utc": "2026-01-24T15:52:37.508851+00:00",
      "timestamp_local": "2026-01-24 21:22:37 IST"
    }
  ]
}