{
  "generated_at_utc": "2026-01-08T09:10:18.937954+00:00",
  "generated_at_local": "2026-01-08 14:40:18",
  "count": 10,
  "points": [
    {
      "currentSpeed_kmph": 30,
      "freeFlowSpeed_kmph": 35,
      "currentTravelTime_s": 1211,
      "freeFlowTravelTime_s": 1038,
      "delay_s": 173,
      "speed_ratio": 0.8571428571428571,
      "confidence": 1,
      "frc": "FRC3",
      "name": "IFFCO Chowk",
      "query_lat": 28.4726,
      "query_lon": 77.0726,
      "timestamp_utc": "2026-01-08T09:10:18.937954+00:00",
      "timestamp_local": "2026-01-08 14:40:18"
    },
    {
      "currentSpeed_kmph": 32,
      "freeFlowSpeed_kmph": 37,
      "currentTravelTime_s": 2093,
      "freeFlowTravelTime_s": 1810,
      "delay_s": 283,
      "speed_ratio": 0.8648648648648649,
      "confidence": 1,
      "frc": "FRC2",
      "name": "MG Road",
      "query_lat": 28.4795,
      "query_lon": 77.0806,
      "timestamp_utc": "2026-01-08T09:10:18.937954+00:00",
      "timestamp_local": "2026-01-08 14:40:18"
    },
    {
      "currentSpeed_kmph": 41,
      "freeFlowSpeed_kmph": 51,
      "currentTravelTime_s": 261,
      "freeFlowTravelTime_s": 210,
      "delay_s": 51,
      "speed_ratio": 0.803921568627451,
      "confidence": 1,
      "frc": "FRC4",
      "name": "Cyber Hub",
      "query_lat": 28.4947,
      "query_lon": 77.0897,
      "timestamp_utc": "2026-01-08T09:10:18.937954+00:00",
      "timestamp_local": "2026-01-08 14:40:18"
    },
    {
      "currentSpeed_kmph": 32,
      "freeFlowSpeed_kmph": 32,
      "currentTravelTime_s": 1071,
      "freeFlowTravelTime_s": 1071,
      "delay_s": 0,
      "speed_ratio": 1.0,
      "confidence": 1,
      "frc": "FRC4",
      "name": "Golf Course Rd",
      "query_lat": 28.4503,
      "query_lon": 77.0972,
      "timestamp_utc": "2026-01-08T09:10:18.937954+00:00",
      "timestamp_local": "2026-01-08 14:40:18"
    },
    {
      "currentSpeed_kmph": 45,
      "freeFlowSpeed_kmph": 50,
      "currentTravelTime_s": 1832,
      "freeFlowTravelTime_s": 1649,
      "delay_s": 183,
      "speed_ratio": 0.9,
      "confidence": 0.9989,
      "frc": "FRC4",
      "name": "Sohna Road",
      "query_lat": 28.4073,
      "query_lon": 77.046,
      "timestamp_utc": "2026-01-08T09:10:18.937954+00:00",
      "timestamp_local": "2026-01-08 14:40:18"
    },
    {
      "currentSpeed_kmph": 50,
      "freeFlowSpeed_kmph": 57,
      "currentTravelTime_s": 1455,
      "freeFlowTravelTime_s": 1276,
      "delay_s": 179,
      "speed_ratio": 0.8771929824561403,
      "confidence": 1,
      "frc": "FRC1",
      "name": "NH-48 (Ambience)",
      "query_lat": 28.5052,
      "query_lon": 77.097,
      "timestamp_utc": "2026-01-08T09:10:18.937954+00:00",
      "timestamp_local": "2026-01-08 14:40:18"
    },
    {
      "currentSpeed_kmph": 20,
      "freeFlowSpeed_kmph": 29,
      "currentTravelTime_s": 2100,
      "freeFlowTravelTime_s": 1448,
      "delay_s": 652,
      "speed_ratio": 0.6896551724137931,
      "confidence": 0.996239,
      "frc": "FRC4",
      "name": "Rajiv Chowk",
      "query_lat": 28.4691,
      "query_lon": 77.0366,
      "timestamp_utc": "2026-01-08T09:10:18.937954+00:00",
      "timestamp_local": "2026-01-08 14:40:18"
    },
    {
      "currentSpeed_kmph": 8,
      "freeFlowSpeed_kmph": 8,
      "currentTravelTime_s": 63,
      "freeFlowTravelTime_s": 63,
      "delay_s": 0,
      "speed_ratio": 1.0,
      "confidence": 1,
      "frc": "FRC4",
      "name": "Huda City Centre",
      "query_lat": 28.4595,
      "query_lon": 77.0722,
      "timestamp_utc": "2026-01-08T09:10:18.937954+00:00",
      "timestamp_local": "2026-01-08 14:40:18"
    },
    {
      "currentSpeed_kmph": 37,
      "freeFlowSpeed_kmph": 44,
      "currentTravelTime_s": 1830,
      "freeFlowTravelTime_s": 1539,
      "delay_s": 291,
      "speed_ratio": 0.8409090909090909,
      "confidence": 1,
      "frc": "FRC2",
      "name": "Sector 56",
      "query_lat": 28.4244,
      "query_lon": 77.107,
      "timestamp_utc": "2026-01-08T09:10:18.937954+00:00",
      "timestamp_local": "2026-01-08 14:40:18"
    },
    {
      "currentSpeed_kmph": 17,
      "freeFlowSpeed_kmph": 17,
      "currentTravelTime_s": 402,
      "freeFlowTravelTime_s": 402,
      "delay_s": 0,
      "speed_ratio": 1.0,
      "confidence": 1,
      "frc": "FRC4",
      "name": "Manesar Rd",
      "query_lat": 28.354,
      "query_lon": 76.944,
      "timestamp_utc": "2026-01-08T09:10:18.937954+00:00",
      "timestamp_local": "2026-01-08 14:40:18"
    }
  ]
}