{
  "generated_at_utc": "2026-01-08T07:06:59.481998+00:00",
  "generated_at_local": "2026-01-08 12:36:59",
  "count": 10,
  "points": [
    {
      "currentSpeed_kmph": 29,
      "freeFlowSpeed_kmph": 35,
      "currentTravelTime_s": 1253,
      "freeFlowTravelTime_s": 1038,
      "delay_s": 215,
      "speed_ratio": 0.8285714285714286,
      "confidence": 1,
      "frc": "FRC3",
      "name": "IFFCO Chowk",
      "query_lat": 28.4726,
      "query_lon": 77.0726,
      "timestamp_utc": "2026-01-08T07:06:59.481998+00:00",
      "timestamp_local": "2026-01-08 12:36:59"
    },
    {
      "currentSpeed_kmph": 32,
      "freeFlowSpeed_kmph": 37,
      "currentTravelTime_s": 2093,
      "freeFlowTravelTime_s": 1810,
      "delay_s": 283,
      "speed_ratio": 0.8648648648648649,
      "confidence": 1,
      "frc": "FRC2",
      "name": "MG Road",
      "query_lat": 28.4795,
      "query_lon": 77.0806,
      "timestamp_utc": "2026-01-08T07:06:59.481998+00:00",
      "timestamp_local": "2026-01-08 12:36:59"
    },
    {
      "currentSpeed_kmph": 52,
      "freeFlowSpeed_kmph": 52,
      "currentTravelTime_s": 206,
      "freeFlowTravelTime_s": 206,
      "delay_s": 0,
      "speed_ratio": 1.0,
      "confidence": 1,
      "frc": "FRC4",
      "name": "Cyber Hub",
      "query_lat": 28.4947,
      "query_lon": 77.0897,
      "timestamp_utc": "2026-01-08T07:06:59.481998+00:00",
      "timestamp_local": "2026-01-08 12:36:59"
    },
    {
      "currentSpeed_kmph": 27,
      "freeFlowSpeed_kmph": 33,
      "currentTravelTime_s": 1269,
      "freeFlowTravelTime_s": 1038,
      "delay_s": 231,
      "speed_ratio": 0.8181818181818182,
      "confidence": 0.998156,
      "frc": "FRC4",
      "name": "Golf Course Rd",
      "query_lat": 28.4503,
      "query_lon": 77.0972,
      "timestamp_utc": "2026-01-08T07:06:59.481998+00:00",
      "timestamp_local": "2026-01-08 12:36:59"
    },
    {
      "currentSpeed_kmph": 45,
      "freeFlowSpeed_kmph": 50,
      "currentTravelTime_s": 1832,
      "freeFlowTravelTime_s": 1649,
      "delay_s": 183,
      "speed_ratio": 0.9,
      "confidence": 0.997976,
      "frc": "FRC4",
      "name": "Sohna Road",
      "query_lat": 28.4073,
      "query_lon": 77.046,
      "timestamp_utc": "2026-01-08T07:06:59.481998+00:00",
      "timestamp_local": "2026-01-08 12:36:59"
    },
    {
      "currentSpeed_kmph": 46,
      "freeFlowSpeed_kmph": 58,
      "currentTravelTime_s": 1581,
      "freeFlowTravelTime_s": 1254,
      "delay_s": 327,
      "speed_ratio": 0.7931034482758621,
      "confidence": 1,
      "frc": "FRC1",
      "name": "NH-48 (Ambience)",
      "query_lat": 28.5052,
      "query_lon": 77.097,
      "timestamp_utc": "2026-01-08T07:06:59.481998+00:00",
      "timestamp_local": "2026-01-08 12:36:59"
    },
    {
      "currentSpeed_kmph": 19,
      "freeFlowSpeed_kmph": 28,
      "currentTravelTime_s": 2210,
      "freeFlowTravelTime_s": 1500,
      "delay_s": 710,
      "speed_ratio": 0.6785714285714286,
      "confidence": 0.993084,
      "frc": "FRC4",
      "name": "Rajiv Chowk",
      "query_lat": 28.4691,
      "query_lon": 77.0366,
      "timestamp_utc": "2026-01-08T07:06:59.481998+00:00",
      "timestamp_local": "2026-01-08 12:36:59"
    },
    {
      "currentSpeed_kmph": 4,
      "freeFlowSpeed_kmph": 7,
      "currentTravelTime_s": 126,
      "freeFlowTravelTime_s": 72,
      "delay_s": 54,
      "speed_ratio": 0.5714285714285714,
      "confidence": 0.98,
      "frc": "FRC4",
      "name": "Huda City Centre",
      "query_lat": 28.4595,
      "query_lon": 77.0722,
      "timestamp_utc": "2026-01-08T07:06:59.481998+00:00",
      "timestamp_local": "2026-01-08 12:36:59"
    },
    {
      "currentSpeed_kmph": 38,
      "freeFlowSpeed_kmph": 44,
      "currentTravelTime_s": 1782,
      "freeFlowTravelTime_s": 1539,
      "delay_s": 243,
      "speed_ratio": 0.8636363636363636,
      "confidence": 1,
      "frc": "FRC2",
      "name": "Sector 56",
      "query_lat": 28.4244,
      "query_lon": 77.107,
      "timestamp_utc": "2026-01-08T07:06:59.481998+00:00",
      "timestamp_local": "2026-01-08 12:36:59"
    },
    {
      "currentSpeed_kmph": 17,
      "freeFlowSpeed_kmph": 17,
      "currentTravelTime_s": 402,
      "freeFlowTravelTime_s": 402,
      "delay_s": 0,
      "speed_ratio": 1.0,
      "confidence": 1,
      "frc": "FRC4",
      "name": "Manesar Rd",
      "query_lat": 28.354,
      "query_lon": 76.944,
      "timestamp_utc": "2026-01-08T07:06:59.481998+00:00",
      "timestamp_local": "2026-01-08 12:36:59"
    }
  ]
}