{
  "generated_at_utc": "2026-01-08T12:16:42.805782+00:00",
  "generated_at_local": "2026-01-08 17:46:42",
  "count": 10,
  "points": [
    {
      "currentSpeed_kmph": 28,
      "freeFlowSpeed_kmph": 34,
      "currentTravelTime_s": 1297,
      "freeFlowTravelTime_s": 1068,
      "delay_s": 229,
      "speed_ratio": 0.8235294117647058,
      "confidence": 1,
      "frc": "FRC3",
      "name": "IFFCO Chowk",
      "query_lat": 28.4726,
      "query_lon": 77.0726,
      "timestamp_utc": "2026-01-08T12:16:42.805782+00:00",
      "timestamp_local": "2026-01-08 17:46:42"
    },
    {
      "currentSpeed_kmph": 26,
      "freeFlowSpeed_kmph": 37,
      "currentTravelTime_s": 2576,
      "freeFlowTravelTime_s": 1810,
      "delay_s": 766,
      "speed_ratio": 0.7027027027027027,
      "confidence": 1,
      "frc": "FRC2",
      "name": "MG Road",
      "query_lat": 28.4795,
      "query_lon": 77.0806,
      "timestamp_utc": "2026-01-08T12:16:42.805782+00:00",
      "timestamp_local": "2026-01-08 17:46:42"
    },
    {
      "currentSpeed_kmph": 34,
      "freeFlowSpeed_kmph": 51,
      "currentTravelTime_s": 315,
      "freeFlowTravelTime_s": 210,
      "delay_s": 105,
      "speed_ratio": 0.6666666666666666,
      "confidence": 1,
      "frc": "FRC4",
      "name": "Cyber Hub",
      "query_lat": 28.4947,
      "query_lon": 77.0897,
      "timestamp_utc": "2026-01-08T12:16:42.805782+00:00",
      "timestamp_local": "2026-01-08 17:46:42"
    },
    {
      "currentSpeed_kmph": 23,
      "freeFlowSpeed_kmph": 32,
      "currentTravelTime_s": 1490,
      "freeFlowTravelTime_s": 1071,
      "delay_s": 419,
      "speed_ratio": 0.71875,
      "confidence": 1,
      "frc": "FRC4",
      "name": "Golf Course Rd",
      "query_lat": 28.4503,
      "query_lon": 77.0972,
      "timestamp_utc": "2026-01-08T12:16:42.805782+00:00",
      "timestamp_local": "2026-01-08 17:46:42"
    },
    {
      "currentSpeed_kmph": 41,
      "freeFlowSpeed_kmph": 50,
      "currentTravelTime_s": 2011,
      "freeFlowTravelTime_s": 1649,
      "delay_s": 362,
      "speed_ratio": 0.82,
      "confidence": 0.999303,
      "frc": "FRC4",
      "name": "Sohna Road",
      "query_lat": 28.4073,
      "query_lon": 77.046,
      "timestamp_utc": "2026-01-08T12:16:42.805782+00:00",
      "timestamp_local": "2026-01-08 17:46:42"
    },
    {
      "currentSpeed_kmph": 40,
      "freeFlowSpeed_kmph": 58,
      "currentTravelTime_s": 1819,
      "freeFlowTravelTime_s": 1254,
      "delay_s": 565,
      "speed_ratio": 0.6896551724137931,
      "confidence": 1,
      "frc": "FRC1",
      "name": "NH-48 (Ambience)",
      "query_lat": 28.5052,
      "query_lon": 77.097,
      "timestamp_utc": "2026-01-08T12:16:42.805782+00:00",
      "timestamp_local": "2026-01-08 17:46:42"
    },
    {
      "currentSpeed_kmph": 19,
      "freeFlowSpeed_kmph": 29,
      "currentTravelTime_s": 2210,
      "freeFlowTravelTime_s": 1448,
      "delay_s": 762,
      "speed_ratio": 0.6551724137931034,
      "confidence": 0.984342,
      "frc": "FRC4",
      "name": "Rajiv Chowk",
      "query_lat": 28.4691,
      "query_lon": 77.0366,
      "timestamp_utc": "2026-01-08T12:16:42.805782+00:00",
      "timestamp_local": "2026-01-08 17:46:42"
    },
    {
      "currentSpeed_kmph": 5,
      "freeFlowSpeed_kmph": 8,
      "currentTravelTime_s": 100,
      "freeFlowTravelTime_s": 63,
      "delay_s": 37,
      "speed_ratio": 0.625,
      "confidence": 0.98,
      "frc": "FRC4",
      "name": "Huda City Centre",
      "query_lat": 28.4595,
      "query_lon": 77.0722,
      "timestamp_utc": "2026-01-08T12:16:42.805782+00:00",
      "timestamp_local": "2026-01-08 17:46:42"
    },
    {
      "currentSpeed_kmph": 33,
      "freeFlowSpeed_kmph": 43,
      "currentTravelTime_s": 2052,
      "freeFlowTravelTime_s": 1575,
      "delay_s": 477,
      "speed_ratio": 0.7674418604651163,
      "confidence": 1,
      "frc": "FRC2",
      "name": "Sector 56",
      "query_lat": 28.4244,
      "query_lon": 77.107,
      "timestamp_utc": "2026-01-08T12:16:42.805782+00:00",
      "timestamp_local": "2026-01-08 17:46:42"
    },
    {
      "currentSpeed_kmph": 17,
      "freeFlowSpeed_kmph": 17,
      "currentTravelTime_s": 402,
      "freeFlowTravelTime_s": 402,
      "delay_s": 0,
      "speed_ratio": 1.0,
      "confidence": 1,
      "frc": "FRC4",
      "name": "Manesar Rd",
      "query_lat": 28.354,
      "query_lon": 76.944,
      "timestamp_utc": "2026-01-08T12:16:42.805782+00:00",
      "timestamp_local": "2026-01-08 17:46:42"
    }
  ]
}