{
  "generated_at_utc": "2026-01-08T10:14:52.335751+00:00",
  "generated_at_local": "2026-01-08 15:44:52",
  "count": 10,
  "points": [
    {
      "currentSpeed_kmph": 33,
      "freeFlowSpeed_kmph": 33,
      "currentTravelTime_s": 1101,
      "freeFlowTravelTime_s": 1101,
      "delay_s": 0,
      "speed_ratio": 1.0,
      "confidence": 1,
      "frc": "FRC3",
      "name": "IFFCO Chowk",
      "query_lat": 28.4726,
      "query_lon": 77.0726,
      "timestamp_utc": "2026-01-08T10:14:52.335751+00:00",
      "timestamp_local": "2026-01-08 15:44:52"
    },
    {
      "currentSpeed_kmph": 30,
      "freeFlowSpeed_kmph": 37,
      "currentTravelTime_s": 2232,
      "freeFlowTravelTime_s": 1810,
      "delay_s": 422,
      "speed_ratio": 0.8108108108108109,
      "confidence": 1,
      "frc": "FRC2",
      "name": "MG Road",
      "query_lat": 28.4795,
      "query_lon": 77.0806,
      "timestamp_utc": "2026-01-08T10:14:52.335751+00:00",
      "timestamp_local": "2026-01-08 15:44:52"
    },
    {
      "currentSpeed_kmph": 39,
      "freeFlowSpeed_kmph": 51,
      "currentTravelTime_s": 275,
      "freeFlowTravelTime_s": 210,
      "delay_s": 65,
      "speed_ratio": 0.7647058823529411,
      "confidence": 1,
      "frc": "FRC4",
      "name": "Cyber Hub",
      "query_lat": 28.4947,
      "query_lon": 77.0897,
      "timestamp_utc": "2026-01-08T10:14:52.335751+00:00",
      "timestamp_local": "2026-01-08 15:44:52"
    },
    {
      "currentSpeed_kmph": 29,
      "freeFlowSpeed_kmph": 33,
      "currentTravelTime_s": 1182,
      "freeFlowTravelTime_s": 1038,
      "delay_s": 144,
      "speed_ratio": 0.8787878787878788,
      "confidence": 0.998271,
      "frc": "FRC4",
      "name": "Golf Course Rd",
      "query_lat": 28.4503,
      "query_lon": 77.0972,
      "timestamp_utc": "2026-01-08T10:14:52.335751+00:00",
      "timestamp_local": "2026-01-08 15:44:52"
    },
    {
      "currentSpeed_kmph": 44,
      "freeFlowSpeed_kmph": 50,
      "currentTravelTime_s": 1874,
      "freeFlowTravelTime_s": 1649,
      "delay_s": 225,
      "speed_ratio": 0.88,
      "confidence": 0.997158,
      "frc": "FRC4",
      "name": "Sohna Road",
      "query_lat": 28.4073,
      "query_lon": 77.046,
      "timestamp_utc": "2026-01-08T10:14:52.335751+00:00",
      "timestamp_local": "2026-01-08 15:44:52"
    },
    {
      "currentSpeed_kmph": 58,
      "freeFlowSpeed_kmph": 58,
      "currentTravelTime_s": 1254,
      "freeFlowTravelTime_s": 1254,
      "delay_s": 0,
      "speed_ratio": 1.0,
      "confidence": 1,
      "frc": "FRC1",
      "name": "NH-48 (Ambience)",
      "query_lat": 28.5052,
      "query_lon": 77.097,
      "timestamp_utc": "2026-01-08T10:14:52.335751+00:00",
      "timestamp_local": "2026-01-08 15:44:52"
    },
    {
      "currentSpeed_kmph": 19,
      "freeFlowSpeed_kmph": 29,
      "currentTravelTime_s": 2210,
      "freeFlowTravelTime_s": 1448,
      "delay_s": 762,
      "speed_ratio": 0.6551724137931034,
      "confidence": 0.995715,
      "frc": "FRC4",
      "name": "Rajiv Chowk",
      "query_lat": 28.4691,
      "query_lon": 77.0366,
      "timestamp_utc": "2026-01-08T10:14:52.335751+00:00",
      "timestamp_local": "2026-01-08 15:44:52"
    },
    {
      "currentSpeed_kmph": 3,
      "freeFlowSpeed_kmph": 7,
      "currentTravelTime_s": 168,
      "freeFlowTravelTime_s": 72,
      "delay_s": 96,
      "speed_ratio": 0.42857142857142855,
      "confidence": 0.98,
      "frc": "FRC4",
      "name": "Huda City Centre",
      "query_lat": 28.4595,
      "query_lon": 77.0722,
      "timestamp_utc": "2026-01-08T10:14:52.335751+00:00",
      "timestamp_local": "2026-01-08 15:44:52"
    },
    {
      "currentSpeed_kmph": 36,
      "freeFlowSpeed_kmph": 44,
      "currentTravelTime_s": 1881,
      "freeFlowTravelTime_s": 1539,
      "delay_s": 342,
      "speed_ratio": 0.8181818181818182,
      "confidence": 1,
      "frc": "FRC2",
      "name": "Sector 56",
      "query_lat": 28.4244,
      "query_lon": 77.107,
      "timestamp_utc": "2026-01-08T10:14:52.335751+00:00",
      "timestamp_local": "2026-01-08 15:44:52"
    },
    {
      "currentSpeed_kmph": 12,
      "freeFlowSpeed_kmph": 16,
      "currentTravelTime_s": 570,
      "freeFlowTravelTime_s": 427,
      "delay_s": 143,
      "speed_ratio": 0.75,
      "confidence": 0.690926,
      "frc": "FRC4",
      "name": "Manesar Rd",
      "query_lat": 28.354,
      "query_lon": 76.944,
      "timestamp_utc": "2026-01-08T10:14:52.335751+00:00",
      "timestamp_local": "2026-01-08 15:44:52"
    }
  ]
}