{
  "generated_at_utc": "2026-01-08T12:37:00.019677+00:00",
  "generated_at_local": "2026-01-08 18:07:00",
  "count": 10,
  "points": [
    {
      "currentSpeed_kmph": 27,
      "freeFlowSpeed_kmph": 34,
      "currentTravelTime_s": 1345,
      "freeFlowTravelTime_s": 1068,
      "delay_s": 277,
      "speed_ratio": 0.7941176470588235,
      "confidence": 1,
      "frc": "FRC3",
      "name": "IFFCO Chowk",
      "query_lat": 28.4726,
      "query_lon": 77.0726,
      "timestamp_utc": "2026-01-08T12:37:00.019677+00:00",
      "timestamp_local": "2026-01-08 18:07:00"
    },
    {
      "currentSpeed_kmph": 28,
      "freeFlowSpeed_kmph": 37,
      "currentTravelTime_s": 2392,
      "freeFlowTravelTime_s": 1810,
      "delay_s": 582,
      "speed_ratio": 0.7567567567567568,
      "confidence": 1,
      "frc": "FRC2",
      "name": "MG Road",
      "query_lat": 28.4795,
      "query_lon": 77.0806,
      "timestamp_utc": "2026-01-08T12:37:00.019677+00:00",
      "timestamp_local": "2026-01-08 18:07:00"
    },
    {
      "currentSpeed_kmph": 39,
      "freeFlowSpeed_kmph": 52,
      "currentTravelTime_s": 275,
      "freeFlowTravelTime_s": 206,
      "delay_s": 69,
      "speed_ratio": 0.75,
      "confidence": 1,
      "frc": "FRC4",
      "name": "Cyber Hub",
      "query_lat": 28.4947,
      "query_lon": 77.0897,
      "timestamp_utc": "2026-01-08T12:37:00.019677+00:00",
      "timestamp_local": "2026-01-08 18:07:00"
    },
    {
      "currentSpeed_kmph": 24,
      "freeFlowSpeed_kmph": 33,
      "currentTravelTime_s": 1428,
      "freeFlowTravelTime_s": 1038,
      "delay_s": 390,
      "speed_ratio": 0.7272727272727273,
      "confidence": 1,
      "frc": "FRC4",
      "name": "Golf Course Rd",
      "query_lat": 28.4503,
      "query_lon": 77.0972,
      "timestamp_utc": "2026-01-08T12:37:00.019677+00:00",
      "timestamp_local": "2026-01-08 18:07:00"
    },
    {
      "currentSpeed_kmph": 40,
      "freeFlowSpeed_kmph": 50,
      "currentTravelTime_s": 2062,
      "freeFlowTravelTime_s": 1649,
      "delay_s": 413,
      "speed_ratio": 0.8,
      "confidence": 0.998702,
      "frc": "FRC4",
      "name": "Sohna Road",
      "query_lat": 28.4073,
      "query_lon": 77.046,
      "timestamp_utc": "2026-01-08T12:37:00.019677+00:00",
      "timestamp_local": "2026-01-08 18:07:00"
    },
    {
      "currentSpeed_kmph": 42,
      "freeFlowSpeed_kmph": 57,
      "currentTravelTime_s": 1732,
      "freeFlowTravelTime_s": 1276,
      "delay_s": 456,
      "speed_ratio": 0.7368421052631579,
      "confidence": 1,
      "frc": "FRC1",
      "name": "NH-48 (Ambience)",
      "query_lat": 28.5052,
      "query_lon": 77.097,
      "timestamp_utc": "2026-01-08T12:37:00.019677+00:00",
      "timestamp_local": "2026-01-08 18:07:00"
    },
    {
      "currentSpeed_kmph": 18,
      "freeFlowSpeed_kmph": 29,
      "currentTravelTime_s": 2333,
      "freeFlowTravelTime_s": 1448,
      "delay_s": 885,
      "speed_ratio": 0.6206896551724138,
      "confidence": 0.987806,
      "frc": "FRC4",
      "name": "Rajiv Chowk",
      "query_lat": 28.4691,
      "query_lon": 77.0366,
      "timestamp_utc": "2026-01-08T12:37:00.019677+00:00",
      "timestamp_local": "2026-01-08 18:07:00"
    },
    {
      "currentSpeed_kmph": 5,
      "freeFlowSpeed_kmph": 8,
      "currentTravelTime_s": 100,
      "freeFlowTravelTime_s": 63,
      "delay_s": 37,
      "speed_ratio": 0.625,
      "confidence": 0.97,
      "frc": "FRC4",
      "name": "Huda City Centre",
      "query_lat": 28.4595,
      "query_lon": 77.0722,
      "timestamp_utc": "2026-01-08T12:37:00.019677+00:00",
      "timestamp_local": "2026-01-08 18:07:00"
    },
    {
      "currentSpeed_kmph": 30,
      "freeFlowSpeed_kmph": 44,
      "currentTravelTime_s": 2258,
      "freeFlowTravelTime_s": 1539,
      "delay_s": 719,
      "speed_ratio": 0.6818181818181818,
      "confidence": 1,
      "frc": "FRC2",
      "name": "Sector 56",
      "query_lat": 28.4244,
      "query_lon": 77.107,
      "timestamp_utc": "2026-01-08T12:37:00.019677+00:00",
      "timestamp_local": "2026-01-08 18:07:00"
    },
    {
      "currentSpeed_kmph": 13,
      "freeFlowSpeed_kmph": 16,
      "currentTravelTime_s": 526,
      "freeFlowTravelTime_s": 427,
      "delay_s": 99,
      "speed_ratio": 0.8125,
      "confidence": 0.661389,
      "frc": "FRC4",
      "name": "Manesar Rd",
      "query_lat": 28.354,
      "query_lon": 76.944,
      "timestamp_utc": "2026-01-08T12:37:00.019677+00:00",
      "timestamp_local": "2026-01-08 18:07:00"
    }
  ]
}