{
  "generated_at_utc": "2026-01-08T08:49:59.634869+00:00",
  "generated_at_local": "2026-01-08 14:19:59",
  "count": 10,
  "points": [
    {
      "currentSpeed_kmph": 29,
      "freeFlowSpeed_kmph": 34,
      "currentTravelTime_s": 1253,
      "freeFlowTravelTime_s": 1068,
      "delay_s": 185,
      "speed_ratio": 0.8529411764705882,
      "confidence": 1,
      "frc": "FRC3",
      "name": "IFFCO Chowk",
      "query_lat": 28.4726,
      "query_lon": 77.0726,
      "timestamp_utc": "2026-01-08T08:49:59.634869+00:00",
      "timestamp_local": "2026-01-08 14:19:59"
    },
    {
      "currentSpeed_kmph": 29,
      "freeFlowSpeed_kmph": 37,
      "currentTravelTime_s": 2309,
      "freeFlowTravelTime_s": 1810,
      "delay_s": 499,
      "speed_ratio": 0.7837837837837838,
      "confidence": 1,
      "frc": "FRC2",
      "name": "MG Road",
      "query_lat": 28.4795,
      "query_lon": 77.0806,
      "timestamp_utc": "2026-01-08T08:49:59.634869+00:00",
      "timestamp_local": "2026-01-08 14:19:59"
    },
    {
      "currentSpeed_kmph": 52,
      "freeFlowSpeed_kmph": 52,
      "currentTravelTime_s": 206,
      "freeFlowTravelTime_s": 206,
      "delay_s": 0,
      "speed_ratio": 1.0,
      "confidence": 1,
      "frc": "FRC4",
      "name": "Cyber Hub",
      "query_lat": 28.4947,
      "query_lon": 77.0897,
      "timestamp_utc": "2026-01-08T08:49:59.634869+00:00",
      "timestamp_local": "2026-01-08 14:19:59"
    },
    {
      "currentSpeed_kmph": 26,
      "freeFlowSpeed_kmph": 32,
      "currentTravelTime_s": 1318,
      "freeFlowTravelTime_s": 1071,
      "delay_s": 247,
      "speed_ratio": 0.8125,
      "confidence": 1,
      "frc": "FRC4",
      "name": "Golf Course Rd",
      "query_lat": 28.4503,
      "query_lon": 77.0972,
      "timestamp_utc": "2026-01-08T08:49:59.634869+00:00",
      "timestamp_local": "2026-01-08 14:19:59"
    },
    {
      "currentSpeed_kmph": 45,
      "freeFlowSpeed_kmph": 50,
      "currentTravelTime_s": 1832,
      "freeFlowTravelTime_s": 1649,
      "delay_s": 183,
      "speed_ratio": 0.9,
      "confidence": 0.998101,
      "frc": "FRC4",
      "name": "Sohna Road",
      "query_lat": 28.4073,
      "query_lon": 77.046,
      "timestamp_utc": "2026-01-08T08:49:59.634869+00:00",
      "timestamp_local": "2026-01-08 14:19:59"
    },
    {
      "currentSpeed_kmph": 52,
      "freeFlowSpeed_kmph": 58,
      "currentTravelTime_s": 1399,
      "freeFlowTravelTime_s": 1254,
      "delay_s": 145,
      "speed_ratio": 0.896551724137931,
      "confidence": 1,
      "frc": "FRC1",
      "name": "NH-48 (Ambience)",
      "query_lat": 28.5052,
      "query_lon": 77.097,
      "timestamp_utc": "2026-01-08T08:49:59.634869+00:00",
      "timestamp_local": "2026-01-08 14:19:59"
    },
    {
      "currentSpeed_kmph": 21,
      "freeFlowSpeed_kmph": 29,
      "currentTravelTime_s": 2000,
      "freeFlowTravelTime_s": 1448,
      "delay_s": 552,
      "speed_ratio": 0.7241379310344828,
      "confidence": 0.997218,
      "frc": "FRC4",
      "name": "Rajiv Chowk",
      "query_lat": 28.4691,
      "query_lon": 77.0366,
      "timestamp_utc": "2026-01-08T08:49:59.634869+00:00",
      "timestamp_local": "2026-01-08 14:19:59"
    },
    {
      "currentSpeed_kmph": 8,
      "freeFlowSpeed_kmph": 8,
      "currentTravelTime_s": 63,
      "freeFlowTravelTime_s": 63,
      "delay_s": 0,
      "speed_ratio": 1.0,
      "confidence": 1,
      "frc": "FRC4",
      "name": "Huda City Centre",
      "query_lat": 28.4595,
      "query_lon": 77.0722,
      "timestamp_utc": "2026-01-08T08:49:59.634869+00:00",
      "timestamp_local": "2026-01-08 14:19:59"
    },
    {
      "currentSpeed_kmph": 37,
      "freeFlowSpeed_kmph": 44,
      "currentTravelTime_s": 1830,
      "freeFlowTravelTime_s": 1539,
      "delay_s": 291,
      "speed_ratio": 0.8409090909090909,
      "confidence": 1,
      "frc": "FRC2",
      "name": "Sector 56",
      "query_lat": 28.4244,
      "query_lon": 77.107,
      "timestamp_utc": "2026-01-08T08:49:59.634869+00:00",
      "timestamp_local": "2026-01-08 14:19:59"
    },
    {
      "currentSpeed_kmph": 14,
      "freeFlowSpeed_kmph": 17,
      "currentTravelTime_s": 488,
      "freeFlowTravelTime_s": 402,
      "delay_s": 86,
      "speed_ratio": 0.8235294117647058,
      "confidence": 0.610975,
      "frc": "FRC4",
      "name": "Manesar Rd",
      "query_lat": 28.354,
      "query_lon": 76.944,
      "timestamp_utc": "2026-01-08T08:49:59.634869+00:00",
      "timestamp_local": "2026-01-08 14:19:59"
    }
  ]
}